{
"type": "FeatureCollection",
"name": "CloseSchools",
"features": [
{ "type": "Feature", "properties": { "objectid_1": 27, "school_num": 7567.0, "school": "CHARLOTTE ENGINEERING EARLY COLLEGE", "school_typ": "HIGH", "address": "9000 Robert D. Snyder Road", "city": "Charlotte", "zipcode": 28262.0, "magnet": "SchoolOption", "grdlevl": "9-13", "x": 1479717.99275, "y": 571907.99286, "mag_focus": "Early & Middle Colleges", "schl_stat": "Current", "Name": "J. Murrey Atkins", "Address_2": "9201 University City Bv", "City_2": "Charlotte, NC", "Zip": "28223", "Status": "Existing", "created_us": null, "created_da": null, "last_edite": null, "last_edi_1": null }, "geometry": { "type": "MultiPoint", "coordinates": [ [ 1479717.992753639817238, 571907.992859557271004 ] ] } },
{ "type": "Feature", "properties": { "objectid_1": 27, "school_num": 7567.0, "school": "CHARLOTTE ENGINEERING EARLY COLLEGE", "school_typ": "HIGH", "address": "9000 Robert D. Snyder Road", "city": "Charlotte", "zipcode": 28262.0, "magnet": "SchoolOption", "grdlevl": "9-13", "x": 1479717.99275, "y": 571907.99286, "mag_focus": "Early & Middle Colleges", "schl_stat": "Current", "Name": "University City Regional", "Address_2": "301 E WT Harris Bv", "City_2": "Charlotte, NC", "Zip": "28262", "Status": "Existing", "created_us": null, "created_da": null, "last_edite": null, "last_edi_1": null }, "geometry": { "type": "MultiPoint", "coordinates": [ [ 1479717.992753639817238, 571907.992859557271004 ] ] } },
{ "type": "Feature", "properties": { "objectid_1": 28, "school_num": 7569.0, "school": "CHARLOTTE TEACHER EARLY COLLEGE", "school_typ": "HIGH", "address": "9000 Robert D. Snyder Road", "city": "Charlotte", "zipcode": 28262.0, "magnet": "SchoolOption", "grdlevl": "9-11", "x": 1479717.99275, "y": 571907.99286, "mag_focus": "Early & Middle Colleges", "schl_stat": "Current", "Name": "J. Murrey Atkins", "Address_2": "9201 University City Bv", "City_2": "Charlotte, NC", "Zip": "28223", "Status": "Existing", "created_us": null, "created_da": null, "last_edite": null, "last_edi_1": null }, "geometry": { "type": "MultiPoint", "coordinates": [ [ 1479717.992753639817238, 571907.992859557271004 ] ] } },
{ "type": "Feature", "properties": { "objectid_1": 28, "school_num": 7569.0, "school": "CHARLOTTE TEACHER EARLY COLLEGE", "school_typ": "HIGH", "address": "9000 Robert D. Snyder Road", "city": "Charlotte", "zipcode": 28262.0, "magnet": "SchoolOption", "grdlevl": "9-11", "x": 1479717.99275, "y": 571907.99286, "mag_focus": "Early & Middle Colleges", "schl_stat": "Current", "Name": "University City Regional", "Address_2": "301 E WT Harris Bv", "City_2": "Charlotte, NC", "Zip": "28262", "Status": "Existing", "created_us": null, "created_da": null, "last_edite": null, "last_edi_1": null }, "geometry": { "type": "MultiPoint", "coordinates": [ [ 1479717.992753639817238, 571907.992859557271004 ] ] } },
{ "type": "Feature", "properties": { "objectid_1": 49, "school_num": 7377.0, "school": "EAST MECKLENBURG", "school_typ": "HIGH", "address": "6800 Monroe Road", "city": "Charlotte", "zipcode": 28212.0, "magnet": "Partial", "grdlevl": "9-12", "x": 1474889.99749, "y": 523586.99731000001, "mag_focus": "International Baccalaureate", "schl_stat": "Current", "Name": "Independence Regional", "Address_2": "6000 Conference Dr", "City_2": "Charlotte, NC", "Zip": "28212", "Status": "Existing", "created_us": null, "created_da": null, "last_edite": null, "last_edi_1": null }, "geometry": { "type": "MultiPoint", "coordinates": [ [ 1474889.997488394379616, 523586.997310146689415 ] ] } },
{ "type": "Feature", "properties": { "objectid_1": 52, "school_num": 7499.0, "school": "CHARLOTTE-MECKLENBURG VIRTUAL", "school_typ": "HIGH", "address": "1900 Newcastle Street", "city": "Charlotte", "zipcode": 28216.0, "magnet": "Full", "grdlevl": "9-12", "x": 1450064.9998900001, "y": 554268.99992199999, "mag_focus": "Blended & Virtual Learning", "schl_stat": "Current", "Name": "Beatties Ford Rd Regional", "Address_2": "2412 Beatties Ford Rd", "City_2": "Charlotte, NC", "Zip": "28216", "Status": "Existing", "created_us": null, "created_da": null, "last_edite": null, "last_edi_1": null }, "geometry": { "type": "MultiPoint", "coordinates": [ [ 1450064.999894380569458, 554268.999922394752502 ] ] } },
{ "type": "Feature", "properties": { "objectid_1": 64, "school_num": 7386.0, "school": "HAWTHORNE ACADEMY OF HEALTH SCIENCE", "school_typ": "HIGH", "address": "1411 Hawthorne Lane", "city": "Charlotte", "zipcode": 28205.0, "magnet": "Full", "grdlevl": "9-12", "x": 1458184.0020300001, "y": 543184.99781199999, "mag_focus": "STEM", "schl_stat": "Current", "Name": "Plaza Midwood", "Address_2": "1623 Central Av", "City_2": "Charlotte, NC", "Zip": "28205", "Status": "Existing", "created_us": null, "created_da": null, "last_edite": null, "last_edi_1": null }, "geometry": { "type": "MultiPoint", "coordinates": [ [ 1458184.002029046416283, 543184.99781222641468 ] ] } },
{ "type": "Feature", "properties": { "objectid_1": 85, "school_num": 7205.0, "school": "JT WILLIAMS SECONDARY MONTESSORI", "school_typ": "HIGH", "address": "2400 Carmine Street", "city": "Charlotte", "zipcode": 28206.0, "magnet": "Full", "grdlevl": "9-12", "x": 1450218.0045100001, "y": 557141.99384799995, "mag_focus": "Montessori", "schl_stat": "Current", "Name": "Beatties Ford Rd Regional", "Address_2": "2412 Beatties Ford Rd", "City_2": "Charlotte, NC", "Zip": "28216", "Status": "Existing", "created_us": null, "created_da": null, "last_edite": null, "last_edi_1": null }, "geometry": { "type": "MultiPoint", "coordinates": [ [ 1450218.004509642720222, 557141.99384830892086 ] ] } },
{ "type": "Feature", "properties": { "objectid_1": 95, "school_num": 7290.0, "school": "HAWTHORNE MILITARY AND GLOBAL LEADERSHIP", "school_typ": "HIGH", "address": "1411 Hawthorne Lane", "city": "Charlotte", "zipcode": 28205.0, "magnet": "Full", "grdlevl": "9-12", "x": 1458184.0020300001, "y": 543184.99781199999, "mag_focus": "Military, Global Leadership & Public Safety", "schl_stat": "Current", "Name": "Plaza Midwood", "Address_2": "1623 Central Av", "City_2": "Charlotte, NC", "Zip": "28205", "Status": "Existing", "created_us": null, "created_da": null, "last_edite": null, "last_edi_1": null }, "geometry": { "type": "MultiPoint", "coordinates": [ [ 1458184.002029046416283, 543184.99781222641468 ] ] } },
{ "type": "Feature", "properties": { "objectid_1": 119, "school_num": 8482.0, "school": "NORTHWEST SCHOOL OF THE ARTS", "school_typ": "HIGH", "address": "1415 Beatties Ford Road", "city": "Charlotte", "zipcode": 28216.0, "magnet": "Full", "grdlevl": "9-12", "x": 1445880.0007199999, "y": 553578.99506900006, "mag_focus": "Visual & Performing Arts", "schl_stat": "Current", "Name": "Beatties Ford Rd Regional", "Address_2": "2412 Beatties Ford Rd", "City_2": "Charlotte, NC", "Zip": "28216", "Status": "Existing", "created_us": null, "created_da": null, "last_edite": null, "last_edi_1": null }, "geometry": { "type": "MultiPoint", "coordinates": [ [ 1445880.000718474388123, 553578.995068803429604 ] ] } },
{ "type": "Feature", "properties": { "objectid_1": 175, "school_num": 7576.0, "school": "WEST CHARLOTTE", "school_typ": "HIGH", "address": "2219 Senior Drive", "city": "Charlotte", "zipcode": 28216.0, "magnet": "Partial", "grdlevl": "9-12", "x": 1445295.0071399999, "y": 556774.99326999998, "mag_focus": "International Baccalaureate", "schl_stat": "Current", "Name": "Beatties Ford Rd Regional", "Address_2": "2412 Beatties Ford Rd", "City_2": "Charlotte, NC", "Zip": "28216", "Status": "Existing", "created_us": null, "created_da": null, "last_edite": null, "last_edi_1": null }, "geometry": { "type": "MultiPoint", "coordinates": [ [ 1445295.007137805223465, 556774.993269979953766 ] ] } }
]
}
